header: 
  seq: 1102
  stamp: 
    secs: 1735628832
    nsecs: 293302039
  frame_id: "world"
status: 
  status: 0
  service: 0
latitude: 28.1747429
longitude: 112.9236969
altitude: 60.014
position_covariance: [18446746124288.0, 0.0, 0.0, 0.0, 18446746124288.0, 0.0, 0.0, 0.0, 14062673985536.0]
position_covariance_type: 2
---
header: 
  seq: 1103
  stamp: 
    secs: 1735628832
    nsecs: 748388944
  frame_id: "world"
status: 
  status: 0
  service: 0
latitude: 28.1747429
longitude: 112.9236969
altitude: 60.014
position_covariance: [18446746124288.0, 0.0, 0.0, 0.0, 18446746124288.0, 0.0, 0.0, 0.0, 14062673985536.0]
position_covariance_type: 2
---
header: 
  seq: 1104
  stamp: 
    secs: 1735628832
    nsecs: 813418350
  frame_id: "world"
status: 
  status: 0
  service: 0
latitude: 28.1747429
longitude: 112.9236969
altitude: 60.014
position_covariance: [18446746124288.0, 0.0, 0.0, 0.0, 18446746124288.0, 0.0, 0.0, 0.0, 14062673985536.0]
position_covariance_type: 2
---
header: 
  seq: 1105
  stamp: 
    secs: 1735628840
    nsecs: 423313874
  frame_id: "world"
status: 
  status: 0
  service: 0
latitude: 28.1747454
longitude: 112.9237423
altitude: 59.956
position_covariance: [18446746124288.0, 0.0, 0.0, 0.0, 18446746124288.0, 0.0, 0.0, 0.0, 14062673985536.0]
position_covariance_type: 2
---
header: 
  seq: 1106
  stamp: 
    secs: 1735628841
    nsecs: 648361389
  frame_id: "world"
status: 
  status: 0
  service: 0
latitude: 28.1747463
longitude: 112.9237587
altitude: 59.956
position_covariance: [18446746124288.0, 0.0, 0.0, 0.0, 18446746124288.0, 0.0, 0.0, 0.0, 14062673985536.0]
position_covariance_type: 2
---
header: 
  seq: 1107
  stamp: 
    secs: 1735628842
    nsecs: 448321685
  frame_id: "world"
status: 
  status: 0
  service: 0
latitude: 28.1747472
longitude: 112.9237693
altitude: 59.974
position_covariance: [18446746124288.0, 0.0, 0.0, 0.0, 18446746124288.0, 0.0, 0.0, 0.0, 14062673985536.0]
position_covariance_type: 2
---
header: 
  seq: 1108
  stamp: 
    secs: 1735628843
    nsecs: 653350134
  frame_id: "world"
status: 
  status: 0
  service: 0
latitude: 28.1747488
longitude: 112.9237868
altitude: 59.85
position_covariance: [18446746124288.0, 0.0, 0.0, 0.0, 18446746124288.0, 0.0, 0.0, 0.0, 14062673985536.0]
position_covariance_type: 2
---
header: 
  seq: 1109
  stamp: 
    secs: 1735628844
    nsecs: 913290719
  frame_id: "world"
status: 
  status: 0
  service: 0
latitude: 28.1747496
longitude: 112.9238063
altitude: 59.804
position_covariance: [18446746124288.0, 0.0, 0.0, 0.0, 18446746124288.0, 0.0, 0.0, 0.0, 14062673985536.0]
position_covariance_type: 2
---
header: 
  seq: 1110
  stamp: 
    secs: 1735628845
    nsecs: 653489114
  frame_id: "world"
status: 
  status: 0
  service: 0
latitude: 28.1747503
longitude: 112.9238181
altitude: 59.791
position_covariance: [18446746124288.0, 0.0, 0.0, 0.0, 18446746124288.0, 0.0, 0.0, 0.0, 14062673985536.0]
position_covariance_type: 2
---
header: 
  seq: 1111
  stamp: 
    secs: 1735628846
    nsecs: 343326387
  frame_id: "world"
status: 
  status: 0
  service: 0
latitude: 28.1747516
longitude: 112.9238289
altitude: 59.78
position_covariance: [18446746124288.0, 0.0, 0.0, 0.0, 18446746124288.0, 0.0, 0.0, 0.0, 14062673985536.0]
position_covariance_type: 2
---
header: 
  seq: 1112
  stamp: 
    secs: 1735628847
    nsecs:  48360464
  frame_id: "world"
status: 
  status: 0
  service: 0
latitude: 28.1747533
longitude: 112.9238399
altitude: 59.789
position_covariance: [18446746124288.0, 0.0, 0.0, 0.0, 18446746124288.0, 0.0, 0.0, 0.0, 14062673985536.0]
position_covariance_type: 2
---
header: 
  seq: 1113
  stamp: 
    secs: 1735628852
    nsecs:  48292561
  frame_id: "world"
status: 
  status: 0
  service: 0
latitude: 28.1747672
longitude: 112.9239171
altitude: 59.795
position_covariance: [18446746124288.0, 0.0, 0.0, 0.0, 18446746124288.0, 0.0, 0.0, 0.0, 14062673985536.0]
position_covariance_type: 2
---
header: 
  seq: 1114
  stamp: 
    secs: 1735628852
    nsecs: 333310022
  frame_id: "world"
status: 
  status: 0
  service: 0
latitude: 28.1747678
longitude: 112.9239216
altitude: 59.8
position_covariance: [18446746124288.0, 0.0, 0.0, 0.0, 18446746124288.0, 0.0, 0.0, 0.0, 14062673985536.0]
position_covariance_type: 2
---
header: 
  seq: 1115
  stamp: 
    secs: 1735628855
    nsecs: 823287723
  frame_id: "world"
status: 
  status: 0
  service: 0
latitude: 28.1747734
longitude: 112.9239763
altitude: 59.683
position_covariance: [18446746124288.0, 0.0, 0.0, 0.0, 18446746124288.0, 0.0, 0.0, 0.0, 14062673985536.0]
position_covariance_type: 2
---
header: 
  seq: 1116
  stamp: 
    secs: 1735628856
    nsecs: 723333676
  frame_id: "world"
status: 
  status: 0
  service: 0
latitude: 28.1747747
longitude: 112.9239903
altitude: 59.682
position_covariance: [18446746124288.0, 0.0, 0.0, 0.0, 18446746124288.0, 0.0, 0.0, 0.0, 14062673985536.0]
position_covariance_type: 2
---
header: 
  seq: 1117
  stamp: 
    secs: 1735628856
    nsecs: 753453953
  frame_id: "world"
status: 
  status: 0
  service: 0
latitude: 28.1747748
longitude: 112.9239907
altitude: 59.679
position_covariance: [18446746124288.0, 0.0, 0.0, 0.0, 18446746124288.0, 0.0, 0.0, 0.0, 14062673985536.0]
position_covariance_type: 2
---
header: 
  seq: 1118
  stamp: 
    secs: 1735628856
    nsecs: 783343180
  frame_id: "world"
status: 
  status: 0
  service: 0
latitude: 28.1747748
longitude: 112.9239912
altitude: 59.679
position_covariance: [18446746124288.0, 0.0, 0.0, 0.0, 18446746124288.0, 0.0, 0.0, 0.0, 14062673985536.0]
position_covariance_type: 2
---
header: 
  seq: 1119
  stamp: 
    secs: 1735628857
    nsecs: 203308407
  frame_id: "world"
status: 
  status: 0
  service: 0
latitude: 28.1747755
longitude: 112.923998
altitude: 59.668
position_covariance: [18446746124288.0, 0.0, 0.0, 0.0, 18446746124288.0, 0.0, 0.0, 0.0, 14062673985536.0]
position_covariance_type: 2
---
header: 
  seq: 1120
  stamp: 
    secs: 1735628860
    nsecs: 873330399
  frame_id: "world"
status: 
  status: 0
  service: 0
latitude: 28.1747815
longitude: 112.9240568
altitude: 59.647
position_covariance: [18446746124288.0, 0.0, 0.0, 0.0, 18446746124288.0, 0.0, 0.0, 0.0, 14062673985536.0]
position_covariance_type: 2
---
header: 
  seq: 1121
  stamp: 
    secs: 1735628860
    nsecs: 883328621
  frame_id: "world"
status: 
  status: 0
  service: 0
latitude: 28.1747816
longitude: 112.9240569
altitude: 59.647
position_covariance: [18446746124288.0, 0.0, 0.0, 0.0, 18446746124288.0, 0.0, 0.0, 0.0, 14062673985536.0]
position_covariance_type: 2
---
header: 
  seq: 1122
  stamp: 
    secs: 1735628860
    nsecs: 893337815
  frame_id: "world"
status: 
  status: 0
  service: 0
latitude: 28.1747816
longitude: 112.9240571
altitude: 59.647
position_covariance: [18446746124288.0, 0.0, 0.0, 0.0, 18446746124288.0, 0.0, 0.0, 0.0, 14062673985536.0]
position_covariance_type: 2
---
header: 
  seq: 1123
  stamp: 
    secs: 1735628860
    nsecs: 903323832
  frame_id: "world"
status: 
  status: 0
  service: 0
latitude: 28.1747816
longitude: 112.9240572
altitude: 59.646
position_covariance: [18446746124288.0, 0.0, 0.0, 0.0, 18446746124288.0, 0.0, 0.0, 0.0, 14062673985536.0]
position_covariance_type: 2
---
header: 
  seq: 1124
  stamp: 
    secs: 1735628860
    nsecs: 923328954
  frame_id: "world"
status: 
  status: 0
  service: 0
latitude: 28.1747816
longitude: 112.9240576
altitude: 59.645
position_covariance: [18446746124288.0, 0.0, 0.0, 0.0, 18446746124288.0, 0.0, 0.0, 0.0, 14062673985536.0]
position_covariance_type: 2
---
header: 
  seq: 1125
  stamp: 
    secs: 1735628860
    nsecs: 943297862
  frame_id: "world"
status: 
  status: 0
  service: 0
latitude: 28.1747817
longitude: 112.9240579
altitude: 59.644
position_covariance: [18446746124288.0, 0.0, 0.0, 0.0, 18446746124288.0, 0.0, 0.0, 0.0, 14062673985536.0]
position_covariance_type: 2
---
header: 
  seq: 1126
  stamp: 
    secs: 1735628860
    nsecs: 963445586
  frame_id: "world"
status: 
  status: 0
  service: 0
latitude: 28.1747817
longitude: 112.9240582
altitude: 59.643
position_covariance: [18446746124288.0, 0.0, 0.0, 0.0, 18446746124288.0, 0.0, 0.0, 0.0, 14062673985536.0]
position_covariance_type: 2
---
header: 
  seq: 1127
  stamp: 
    secs: 1735628860
    nsecs: 983334133
  frame_id: "world"
status: 
  status: 0
  service: 0
latitude: 28.1747817
longitude: 112.9240585
altitude: 59.642
position_covariance: [18446746124288.0, 0.0, 0.0, 0.0, 18446746124288.0, 0.0, 0.0, 0.0, 14062673985536.0]
position_covariance_type: 2
---
header: 
  seq: 1128
  stamp: 
    secs: 1735628861
    nsecs:   3313530
  frame_id: "world"
status: 
  status: 0
  service: 0
latitude: 28.1747817
longitude: 112.9240589
altitude: 59.642
position_covariance: [18446746124288.0, 0.0, 0.0, 0.0, 18446746124288.0, 0.0, 0.0, 0.0, 14062673985536.0]
position_covariance_type: 2
---
header: 
  seq: 1129
  stamp: 
    secs: 1735628861
    nsecs:  13425949
  frame_id: "world"
status: 
  status: 0
  service: 0
latitude: 28.1747817
longitude: 112.924059
altitude: 59.643
position_covariance: [18446746124288.0, 0.0, 0.0, 0.0, 18446746124288.0, 0.0, 0.0, 0.0, 14062673985536.0]
position_covariance_type: 2
---
header: 
  seq: 1130
  stamp: 
    secs: 1735628861
    nsecs:  23314338
  frame_id: "world"
status: 
  status: 0
  service: 0
latitude: 28.1747817
longitude: 112.9240592
altitude: 59.644
position_covariance: [18446746124288.0, 0.0, 0.0, 0.0, 18446746124288.0, 0.0, 0.0, 0.0, 14062673985536.0]
position_covariance_type: 2
---
header: 
  seq: 1131
  stamp: 
    secs: 1735628861
    nsecs:  33332869
  frame_id: "world"
status: 
  status: 0
  service: 0
latitude: 28.1747817
longitude: 112.9240594
altitude: 59.645
position_covariance: [18446746124288.0, 0.0, 0.0, 0.0, 18446746124288.0, 0.0, 0.0, 0.0, 14062673985536.0]
position_covariance_type: 2
---
header: 
  seq: 1132
  stamp: 
    secs: 1735628861
    nsecs:  63447683
  frame_id: "world"
status: 
  status: 0
  service: 0
latitude: 28.1747819
longitude: 112.9240599
altitude: 59.65
position_covariance: [18446746124288.0, 0.0, 0.0, 0.0, 18446746124288.0, 0.0, 0.0, 0.0, 14062673985536.0]
position_covariance_type: 2
---
header: 
  seq: 1133
  stamp: 
    secs: 1735628861
    nsecs:  73384175
  frame_id: "world"
status: 
  status: 0
  service: 0
latitude: 28.1747819
longitude: 112.9240601
altitude: 59.65
position_covariance: [18446746124288.0, 0.0, 0.0, 0.0, 18446746124288.0, 0.0, 0.0, 0.0, 14062673985536.0]
position_covariance_type: 2
---
header: 
  seq: 1134
  stamp: 
    secs: 1735628861
    nsecs:  83296062
  frame_id: "world"
status: 
  status: 0
  service: 0
latitude: 28.1747819
longitude: 112.9240602
altitude: 59.65
position_covariance: [18446746124288.0, 0.0, 0.0, 0.0, 18446746124288.0, 0.0, 0.0, 0.0, 14062673985536.0]
position_covariance_type: 2
---
header: 
  seq: 1135
  stamp: 
    secs: 1735628861
    nsecs:  93307988
  frame_id: "world"
status: 
  status: 0
  service: 0
latitude: 28.1747819
longitude: 112.9240604
altitude: 59.649
position_covariance: [18446746124288.0, 0.0, 0.0, 0.0, 18446746124288.0, 0.0, 0.0, 0.0, 14062673985536.0]
position_covariance_type: 2
---
header: 
  seq: 1136
  stamp: 
    secs: 1735628861
    nsecs: 103322109
  frame_id: "world"
status: 
  status: 0
  service: 0
latitude: 28.1747819
longitude: 112.9240605
altitude: 59.649
position_covariance: [18446746124288.0, 0.0, 0.0, 0.0, 18446746124288.0, 0.0, 0.0, 0.0, 14062673985536.0]
position_covariance_type: 2
---
header: 
  seq: 1137
  stamp: 
    secs: 1735628861
    nsecs: 113375673
  frame_id: "world"
status: 
  status: 0
  service: 0
latitude: 28.1747819
longitude: 112.9240607
altitude: 59.647
position_covariance: [18446746124288.0, 0.0, 0.0, 0.0, 18446746124288.0, 0.0, 0.0, 0.0, 14062673985536.0]
position_covariance_type: 2
---
header: 
  seq: 1138
  stamp: 
    secs: 1735628861
    nsecs: 123418925
  frame_id: "world"
status: 
  status: 0
  service: 0
latitude: 28.1747819
longitude: 112.9240608
altitude: 59.646
position_covariance: [18446746124288.0, 0.0, 0.0, 0.0, 18446746124288.0, 0.0, 0.0, 0.0, 14062673985536.0]
position_covariance_type: 2
---
header: 
  seq: 1139
  stamp: 
    secs: 1735628861
    nsecs: 413287697
  frame_id: "world"
status: 
  status: 0
  service: 0
latitude: 28.1747824
longitude: 112.9240657
altitude: 59.653
position_covariance: [18446746124288.0, 0.0, 0.0, 0.0, 18446746124288.0, 0.0, 0.0, 0.0, 14062673985536.0]
position_covariance_type: 2
---
header: 
  seq: 1140
  stamp: 
    secs: 1735628861
    nsecs: 648356660
  frame_id: "world"
status: 
  status: 0
  service: 0
latitude: 28.1747827
longitude: 112.9240695
altitude: 59.652
position_covariance: [18446746124288.0, 0.0, 0.0, 0.0, 18446746124288.0, 0.0, 0.0, 0.0, 14062673985536.0]
position_covariance_type: 2
---
header: 
  seq: 1141
  stamp: 
    secs: 1735628862
    nsecs: 262147223
  frame_id: "world"
status: 
  status: 0
  service: 0
latitude: 28.1747839
longitude: 112.9240794
altitude: 59.666
position_covariance: [18446746124288.0, 0.0, 0.0, 0.0, 18446746124288.0, 0.0, 0.0, 0.0, 14062673985536.0]
position_covariance_type: 2
---
header: 
  seq: 1142
  stamp: 
    secs: 1735628863
    nsecs: 583305337
  frame_id: "world"
status: 
  status: 0
  service: 0
latitude: 28.174786
longitude: 112.9241011
altitude: 59.662
position_covariance: [18446746124288.0, 0.0, 0.0, 0.0, 18446746124288.0, 0.0, 0.0, 0.0, 14062673985536.0]
position_covariance_type: 2
---
header: 
  seq: 1143
  stamp: 
    secs: 1735628864
    nsecs: 848295104
  frame_id: "world"
status: 
  status: 0
  service: 0
latitude: 28.1747878
longitude: 112.9241215
altitude: 59.623
position_covariance: [18446746124288.0, 0.0, 0.0, 0.0, 18446746124288.0, 0.0, 0.0, 0.0, 14062673985536.0]
position_covariance_type: 2
---
header: 
  seq: 1144
  stamp: 
    secs: 1735628873
    nsecs: 653377021
  frame_id: "world"
status: 
  status: 0
  service: 0
latitude: 28.1747965
longitude: 112.9242648
altitude: 59.619
position_covariance: [18446746124288.0, 0.0, 0.0, 0.0, 18446746124288.0, 0.0, 0.0, 0.0, 14062673985536.0]
position_covariance_type: 2
---
header: 
  seq: 1145
  stamp: 
    secs: 1735628874
    nsecs:  48328028
  frame_id: "world"
status: 
  status: 0
  service: 0
latitude: 28.1747961
longitude: 112.924271
altitude: 59.631
position_covariance: [18446746124288.0, 0.0, 0.0, 0.0, 18446746124288.0, 0.0, 0.0, 0.0, 14062673985536.0]
position_covariance_type: 2
---
header: 
  seq: 1146
  stamp: 
    secs: 1735628875
    nsecs: 303321260
  frame_id: "world"
status: 
  status: 0
  service: 0
latitude: 28.1747949
longitude: 112.924291
altitude: 59.629
position_covariance: [18446746124288.0, 0.0, 0.0, 0.0, 18446746124288.0, 0.0, 0.0, 0.0, 14062673985536.0]
position_covariance_type: 2
---
header: 
  seq: 1147
  stamp: 
    secs: 1735628875
    nsecs: 683352218
  frame_id: "world"
status: 
  status: 0
  service: 0
latitude: 28.1747945
longitude: 112.924297
altitude: 59.627
position_covariance: [18446746124288.0, 0.0, 0.0, 0.0, 18446746124288.0, 0.0, 0.0, 0.0, 14062673985536.0]
position_covariance_type: 2
---
header: 
  seq: 1148
  stamp: 
    secs: 1735628878
    nsecs: 903313599
  frame_id: "world"
status: 
  status: 0
  service: 0
latitude: 28.1747926
longitude: 112.9243467
altitude: 59.601
position_covariance: [18446746124288.0, 0.0, 0.0, 0.0, 18446746124288.0, 0.0, 0.0, 0.0, 14062673985536.0]
position_covariance_type: 2
---
header: 
  seq: 1149
  stamp: 
    secs: 1735628883
    nsecs: 623325132
  frame_id: "world"
status: 
  status: 0
  service: 0
latitude: 28.1747875
longitude: 112.9243982
altitude: 59.605
position_covariance: [18446746124288.0, 0.0, 0.0, 0.0, 18446746124288.0, 0.0, 0.0, 0.0, 14062673985536.0]
position_covariance_type: 2
---
header: 
  seq: 1150
  stamp: 
    secs: 1735628886
    nsecs: 993287010
  frame_id: "world"
status: 
  status: 0
  service: 0
latitude: 28.1747694
longitude: 112.9244134
altitude: 59.529
position_covariance: [18446746124288.0, 0.0, 0.0, 0.0, 18446746124288.0, 0.0, 0.0, 0.0, 14062673985536.0]
position_covariance_type: 2
---
header: 
  seq: 1151
  stamp: 
    secs: 1735628887
    nsecs: 193331276
  frame_id: "world"
status: 
  status: 0
  service: 0
latitude: 28.1747679
longitude: 112.9244137
altitude: 59.529
position_covariance: [18446746124288.0, 0.0, 0.0, 0.0, 18446746124288.0, 0.0, 0.0, 0.0, 14062673985536.0]
position_covariance_type: 2
---
header: 
  seq: 1152
  stamp: 
    secs: 1735628888
    nsecs: 823302701
  frame_id: "world"
status: 
  status: 0
  service: 0
latitude: 28.1747546
longitude: 112.924415
altitude: 59.504
position_covariance: [18446746124288.0, 0.0, 0.0, 0.0, 18446746124288.0, 0.0, 0.0, 0.0, 14062673985536.0]
position_covariance_type: 2
---
header: 
  seq: 1153
  stamp: 
    secs: 1735628890
    nsecs: 223376206
  frame_id: "world"
status: 
  status: 0
  service: 0
latitude: 28.1747419
longitude: 112.9244155
altitude: 59.502
position_covariance: [18446746124288.0, 0.0, 0.0, 0.0, 18446746124288.0, 0.0, 0.0, 0.0, 14062673985536.0]
position_covariance_type: 2
---
header: 
  seq: 1154
  stamp: 
    secs: 1735628891
    nsecs: 523569446
  frame_id: "world"
status: 
  status: 0
  service: 0
latitude: 28.1747303
longitude: 112.9244153
altitude: 59.486
position_covariance: [18446746124288.0, 0.0, 0.0, 0.0, 18446746124288.0, 0.0, 0.0, 0.0, 14062673985536.0]
position_covariance_type: 2
---
header: 
  seq: 1155
  stamp: 
    secs: 1735628892
    nsecs: 383320445
  frame_id: "world"
status: 
  status: 0
  service: 0
latitude: 28.1747225
longitude: 112.9244145
altitude: 59.478
position_covariance: [18446746124288.0, 0.0, 0.0, 0.0, 18446746124288.0, 0.0, 0.0, 0.0, 14062673985536.0]
position_covariance_type: 2
---
header: 
  seq: 1156
  stamp: 
    secs: 1735628892
    nsecs: 723331992
  frame_id: "world"
status: 
  status: 0
  service: 0
latitude: 28.1747197
longitude: 112.9244139
altitude: 59.479
position_covariance: [18446746124288.0, 0.0, 0.0, 0.0, 18446746124288.0, 0.0, 0.0, 0.0, 14062673985536.0]
position_covariance_type: 2
---
header: 
  seq: 1157
  stamp: 
    secs: 1735628893
    nsecs: 473347664
  frame_id: "world"
status: 
  status: 0
  service: 0
latitude: 28.1747138
longitude: 112.9244117
altitude: 59.496
position_covariance: [18446746124288.0, 0.0, 0.0, 0.0, 18446746124288.0, 0.0, 0.0, 0.0, 14062673985536.0]
position_covariance_type: 2
---
header: 
  seq: 1158
  stamp: 
    secs: 1735628895
    nsecs: 483514314
  frame_id: "world"
status: 
  status: 0
  service: 0
latitude: 28.1747032
longitude: 112.9243992
altitude: 59.498
position_covariance: [18446746124288.0, 0.0, 0.0, 0.0, 18446746124288.0, 0.0, 0.0, 0.0, 14062673985536.0]
position_covariance_type: 2
---
header: 
  seq: 1159
  stamp: 
    secs: 1735628896
    nsecs: 648333318
  frame_id: "world"
status: 
  status: 0
  service: 0
latitude: 28.1747016
longitude: 112.9243896
altitude: 59.533
position_covariance: [18446746124288.0, 0.0, 0.0, 0.0, 18446746124288.0, 0.0, 0.0, 0.0, 14062673985536.0]
position_covariance_type: 2
---
header: 
  seq: 1160
  stamp: 
    secs: 1735628899
    nsecs: 648317594
  frame_id: "world"
status: 
  status: 0
  service: 0
latitude: 28.174706
longitude: 112.9243608
altitude: 59.487
position_covariance: [18446746124288.0, 0.0, 0.0, 0.0, 18446746124288.0, 0.0, 0.0, 0.0, 14062673985536.0]
position_covariance_type: 2
---
header: 
  seq: 1161
  stamp: 
    secs: 1735628901
    nsecs: 353491525
  frame_id: "world"
status: 
  status: 0
  service: 0
latitude: 28.1747076
longitude: 112.9243424
altitude: 59.487
position_covariance: [18446746124288.0, 0.0, 0.0, 0.0, 18446746124288.0, 0.0, 0.0, 0.0, 14062673985536.0]
position_covariance_type: 2
---
header: 
  seq: 1162
  stamp: 
    secs: 1735628904
    nsecs: 783382281
  frame_id: "world"
status: 
  status: 0
  service: 0
latitude: 28.1747022
longitude: 112.9242999
altitude: 59.474
position_covariance: [18446746124288.0, 0.0, 0.0, 0.0, 18446746124288.0, 0.0, 0.0, 0.0, 14062673985536.0]
position_covariance_type: 2
---
header: 
  seq: 1163
  stamp: 
    secs: 1735628905
    nsecs: 248345316
  frame_id: "world"
status: 
  status: 0
  service: 0
latitude: 28.1747013
longitude: 112.9242941
altitude: 59.474
position_covariance: [18446746124288.0, 0.0, 0.0, 0.0, 18446746124288.0, 0.0, 0.0, 0.0, 14062673985536.0]
position_covariance_type: 2
---
header: 
  seq: 1164
  stamp: 
    secs: 1735628905
    nsecs: 453402708
  frame_id: "world"
status: 
  status: 0
  service: 0
latitude: 28.1747009
longitude: 112.9242916
altitude: 59.473
position_covariance: [18446746124288.0, 0.0, 0.0, 0.0, 18446746124288.0, 0.0, 0.0, 0.0, 14062673985536.0]
position_covariance_type: 2
---
header: 
  seq: 1165
  stamp: 
    secs: 1735628906
    nsecs: 248314257
  frame_id: "world"
status: 
  status: 0
  service: 0
latitude: 28.1746997
longitude: 112.9242819
altitude: 59.477
position_covariance: [18446746124288.0, 0.0, 0.0, 0.0, 18446746124288.0, 0.0, 0.0, 0.0, 14062673985536.0]
position_covariance_type: 2
---
header: 
  seq: 1166
  stamp: 
    secs: 1735628907
    nsecs: 433311833
  frame_id: "world"
status: 
  status: 0
  service: 0
latitude: 28.1746972
longitude: 112.9242659
altitude: 59.458
position_covariance: [18446746124288.0, 0.0, 0.0, 0.0, 18446746124288.0, 0.0, 0.0, 0.0, 14062673985536.0]
position_covariance_type: 2
---
header: 
  seq: 1167
  stamp: 
    secs: 1735628907
    nsecs: 623338464
  frame_id: "world"
status: 
  status: 0
  service: 0
latitude: 28.1746968
longitude: 112.9242633
altitude: 59.458
position_covariance: [18446746124288.0, 0.0, 0.0, 0.0, 18446746124288.0, 0.0, 0.0, 0.0, 14062673985536.0]
position_covariance_type: 2
---
header: 
  seq: 1168
  stamp: 
    secs: 1735628911
    nsecs: 983312421
  frame_id: "world"
status: 
  status: 0
  service: 0
latitude: 28.1746911
longitude: 112.9242036
altitude: 59.476
position_covariance: [18446746124288.0, 0.0, 0.0, 0.0, 18446746124288.0, 0.0, 0.0, 0.0, 14062673985536.0]
position_covariance_type: 2
---
header: 
  seq: 1169
  stamp: 
    secs: 1735628913
    nsecs: 233343641
  frame_id: "world"
status: 
  status: 0
  service: 0
latitude: 28.1746891
longitude: 112.9241863
altitude: 59.484
position_covariance: [18446746124288.0, 0.0, 0.0, 0.0, 18446746124288.0, 0.0, 0.0, 0.0, 14062673985536.0]
position_covariance_type: 2
---
header: 
  seq: 1170
  stamp: 
    secs: 1735628913
    nsecs: 648376165
  frame_id: "world"
status: 
  status: 0
  service: 0
latitude: 28.1746885
longitude: 112.9241805
altitude: 59.49
position_covariance: [18446746124288.0, 0.0, 0.0, 0.0, 18446746124288.0, 0.0, 0.0, 0.0, 14062673985536.0]
position_covariance_type: 2
---
header: 
  seq: 1171
  stamp: 
    secs: 1735628914
    nsecs: 703474698
  frame_id: "world"
status: 
  status: 0
  service: 0
latitude: 28.1746868
longitude: 112.9241658
altitude: 59.493
position_covariance: [18446746124288.0, 0.0, 0.0, 0.0, 18446746124288.0, 0.0, 0.0, 0.0, 14062673985536.0]
position_covariance_type: 2
---
header: 
  seq: 1172
  stamp: 
    secs: 1735628916
    nsecs: 863464853
  frame_id: "world"
status: 
  status: 0
  service: 0
latitude: 28.1746831
longitude: 112.9241357
altitude: 59.501
position_covariance: [18446746124288.0, 0.0, 0.0, 0.0, 18446746124288.0, 0.0, 0.0, 0.0, 14062673985536.0]
position_covariance_type: 2
---
header: 
  seq: 1173
  stamp: 
    secs: 1735628917
    nsecs: 153366238
  frame_id: "world"
status: 
  status: 0
  service: 0
latitude: 28.1746827
longitude: 112.9241316
altitude: 59.503
position_covariance: [18446746124288.0, 0.0, 0.0, 0.0, 18446746124288.0, 0.0, 0.0, 0.0, 14062673985536.0]
position_covariance_type: 2
---
header: 
  seq: 1174
  stamp: 
    secs: 1735628917
    nsecs: 848389742
  frame_id: "world"
status: 
  status: 0
  service: 0
latitude: 28.1746818
longitude: 112.9241216
altitude: 59.486
position_covariance: [18446746124288.0, 0.0, 0.0, 0.0, 18446746124288.0, 0.0, 0.0, 0.0, 14062673985536.0]
position_covariance_type: 2
---
header: 
  seq: 1175
  stamp: 
    secs: 1735628925
    nsecs: 883369877
  frame_id: "world"
status: 
  status: 0
  service: 0
latitude: 28.1746689
longitude: 112.92400430000001
altitude: 59.533
position_covariance: [18446746124288.0, 0.0, 0.0, 0.0, 18446746124288.0, 0.0, 0.0, 0.0, 14062673985536.0]
position_covariance_type: 2
---
header: 
  seq: 1176
  stamp: 
    secs: 1735628925
    nsecs: 973323162
  frame_id: "world"
status: 
  status: 0
  service: 0
latitude: 28.1746688
longitude: 112.924003
altitude: 59.532
position_covariance: [18446746124288.0, 0.0, 0.0, 0.0, 18446746124288.0, 0.0, 0.0, 0.0, 14062673985536.0]
position_covariance_type: 2
---
header: 
  seq: 1177
  stamp: 
    secs: 1735628926
    nsecs: 413396411
  frame_id: "world"
status: 
  status: 0
  service: 0
latitude: 28.1746683
longitude: 112.9239965
altitude: 59.535
position_covariance: [18446746124288.0, 0.0, 0.0, 0.0, 18446746124288.0, 0.0, 0.0, 0.0, 14062673985536.0]
position_covariance_type: 2
---
header: 
  seq: 1178
  stamp: 
    secs: 1735628926
    nsecs: 423346271
  frame_id: "world"
status: 
  status: 0
  service: 0
latitude: 28.1746682
longitude: 112.9239964
altitude: 59.535
position_covariance: [18446746124288.0, 0.0, 0.0, 0.0, 18446746124288.0, 0.0, 0.0, 0.0, 14062673985536.0]
position_covariance_type: 2
---
header: 
  seq: 1179
  stamp: 
    secs: 1735628926
    nsecs: 433311657
  frame_id: "world"
status: 
  status: 0
  service: 0
latitude: 28.1746682
longitude: 112.9239962
altitude: 59.536
position_covariance: [18446746124288.0, 0.0, 0.0, 0.0, 18446746124288.0, 0.0, 0.0, 0.0, 14062673985536.0]
position_covariance_type: 2
---
header: 
  seq: 1180
  stamp: 
    secs: 1735628926
    nsecs: 473355876
  frame_id: "world"
status: 
  status: 0
  service: 0
latitude: 28.1746682
longitude: 112.9239956
altitude: 59.537
position_covariance: [18446746124288.0, 0.0, 0.0, 0.0, 18446746124288.0, 0.0, 0.0, 0.0, 14062673985536.0]
position_covariance_type: 2
---
header: 
  seq: 1181
  stamp: 
    secs: 1735628926
    nsecs: 493343142
  frame_id: "world"
status: 
  status: 0
  service: 0
latitude: 28.1746681
longitude: 112.9239953
altitude: 59.537
position_covariance: [18446746124288.0, 0.0, 0.0, 0.0, 18446746124288.0, 0.0, 0.0, 0.0, 14062673985536.0]
position_covariance_type: 2
---
header: 
  seq: 1182
  stamp: 
    secs: 1735628926
    nsecs: 503345124
  frame_id: "world"
status: 
  status: 0
  service: 0
latitude: 28.1746681
longitude: 112.9239952
altitude: 59.537
position_covariance: [18446746124288.0, 0.0, 0.0, 0.0, 18446746124288.0, 0.0, 0.0, 0.0, 14062673985536.0]
position_covariance_type: 2
---
header: 
  seq: 1183
  stamp: 
    secs: 1735628926
    nsecs: 533329792
  frame_id: "world"
status: 
  status: 0
  service: 0
latitude: 28.1746681
longitude: 112.9239948
altitude: 59.536
position_covariance: [18446746124288.0, 0.0, 0.0, 0.0, 18446746124288.0, 0.0, 0.0, 0.0, 14062673985536.0]
position_covariance_type: 2
---
header: 
  seq: 1184
  stamp: 
    secs: 1735628926
    nsecs: 573973083
  frame_id: "world"
status: 
  status: 0
  service: 0
latitude: 28.1746681
longitude: 112.9239942
altitude: 59.534
position_covariance: [18446746124288.0, 0.0, 0.0, 0.0, 18446746124288.0, 0.0, 0.0, 0.0, 14062673985536.0]
position_covariance_type: 2
---
header: 
  seq: 1185
  stamp: 
    secs: 1735628926
    nsecs: 583292699
  frame_id: "world"
status: 
  status: 0
  service: 0
latitude: 28.174668
longitude: 112.9239941
altitude: 59.534
position_covariance: [18446746124288.0, 0.0, 0.0, 0.0, 18446746124288.0, 0.0, 0.0, 0.0, 14062673985536.0]
position_covariance_type: 2
---
header: 
  seq: 1186
  stamp: 
    secs: 1735628926
    nsecs: 593362102
  frame_id: "world"
status: 
  status: 0
  service: 0
latitude: 28.174668
longitude: 112.9239939
altitude: 59.534
position_covariance: [18446746124288.0, 0.0, 0.0, 0.0, 18446746124288.0, 0.0, 0.0, 0.0, 14062673985536.0]
position_covariance_type: 2
---
header: 
  seq: 1187
  stamp: 
    secs: 1735628926
    nsecs: 603318999
  frame_id: "world"
status: 
  status: 0
  service: 0
latitude: 28.174668
longitude: 112.9239937
altitude: 59.535
position_covariance: [18446746124288.0, 0.0, 0.0, 0.0, 18446746124288.0, 0.0, 0.0, 0.0, 14062673985536.0]
position_covariance_type: 2
---
header: 
  seq: 1188
  stamp: 
    secs: 1735628926
    nsecs: 623429764
  frame_id: "world"
status: 
  status: 0
  service: 0
latitude: 28.174668
longitude: 112.9239934
altitude: 59.537
position_covariance: [18446746124288.0, 0.0, 0.0, 0.0, 18446746124288.0, 0.0, 0.0, 0.0, 14062673985536.0]
position_covariance_type: 2
---
header: 
  seq: 1189
  stamp: 
    secs: 1735628926
    nsecs: 633292592
  frame_id: "world"
status: 
  status: 0
  service: 0
latitude: 28.174668
longitude: 112.9239933
altitude: 59.537
position_covariance: [18446746124288.0, 0.0, 0.0, 0.0, 18446746124288.0, 0.0, 0.0, 0.0, 14062673985536.0]
position_covariance_type: 2
---
header: 
  seq: 1190
  stamp: 
    secs: 1735628927
    nsecs: 248314195
  frame_id: "world"
status: 
  status: 0
  service: 0
latitude: 28.1746673
longitude: 112.9239843
altitude: 59.523
position_covariance: [18446746124288.0, 0.0, 0.0, 0.0, 18446746124288.0, 0.0, 0.0, 0.0, 14062673985536.0]
position_covariance_type: 2
---
header: 
  seq: 1191
  stamp: 
    secs: 1735628927
    nsecs: 653405693
  frame_id: "world"
status: 
  status: 0
  service: 0
latitude: 28.1746667
longitude: 112.9239782
altitude: 59.502
position_covariance: [18446746124288.0, 0.0, 0.0, 0.0, 18446746124288.0, 0.0, 0.0, 0.0, 14062673985536.0]
position_covariance_type: 2
---
header: 
  seq: 1192
  stamp: 
    secs: 1735628928
    nsecs: 423323110
  frame_id: "world"
status: 
  status: 0
  service: 0
latitude: 28.1746651
longitude: 112.9239667
altitude: 59.503
position_covariance: [18446746124288.0, 0.0, 0.0, 0.0, 18446746124288.0, 0.0, 0.0, 0.0, 14062673985536.0]
position_covariance_type: 2
---
header: 
  seq: 1193
  stamp: 
    secs: 1735628928
    nsecs: 923362650
  frame_id: "world"
status: 
  status: 0
  service: 0
latitude: 28.1746639
longitude: 112.9239592
altitude: 59.516
position_covariance: [18446746124288.0, 0.0, 0.0, 0.0, 18446746124288.0, 0.0, 0.0, 0.0, 14062673985536.0]
position_covariance_type: 2
---
header: 
  seq: 1194
  stamp: 
    secs: 1735628935
    nsecs: 248332636
  frame_id: "world"
status: 
  status: 0
  service: 0
latitude: 28.1746546
longitude: 112.9238847
altitude: 59.588
position_covariance: [18446746124288.0, 0.0, 0.0, 0.0, 18446746124288.0, 0.0, 0.0, 0.0, 14062673985536.0]
position_covariance_type: 2
---
header: 
  seq: 1195
  stamp: 
    secs: 1735628937
    nsecs: 733323487
  frame_id: "world"
status: 
  status: 0
  service: 0
latitude: 28.1746545
longitude: 112.923884
altitude: 59.585
position_covariance: [18446746124288.0, 0.0, 0.0, 0.0, 18446746124288.0, 0.0, 0.0, 0.0, 14062673985536.0]
position_covariance_type: 2
---
header: 
  seq: 1196
  stamp: 
    secs: 1735628937
    nsecs: 833314221
  frame_id: "world"
status: 
  status: 0
  service: 0
latitude: 28.1746545
longitude: 112.923884
altitude: 59.585
position_covariance: [18446746124288.0, 0.0, 0.0, 0.0, 18446746124288.0, 0.0, 0.0, 0.0, 14062673985536.0]
position_covariance_type: 2
---
