header: 
  seq: 1270
  stamp: 
    secs: 1735629020
    nsecs: 773298762
  frame_id: "world"
status: 
  status: 0
  service: 0
latitude: 28.1746752
longitude: 112.9240717
altitude: 59.489
position_covariance: [18446746124288.0, 0.0, 0.0, 0.0, 18446746124288.0, 0.0, 0.0, 0.0, 14062673985536.0]
position_covariance_type: 2
---
header: 
  seq: 1271
  stamp: 
    secs: 1735629025
    nsecs: 583288138
  frame_id: "world"
status: 
  status: 0
  service: 0
latitude: 28.174674
longitude: 112.9240549
altitude: 59.493
position_covariance: [18446746124288.0, 0.0, 0.0, 0.0, 18446746124288.0, 0.0, 0.0, 0.0, 14062673985536.0]
position_covariance_type: 2
---
header: 
  seq: 1272
  stamp: 
    secs: 1735629025
    nsecs: 933286495
  frame_id: "world"
status: 
  status: 0
  service: 0
latitude: 28.1746736
longitude: 112.9240515
altitude: 59.488
position_covariance: [18446746124288.0, 0.0, 0.0, 0.0, 18446746124288.0, 0.0, 0.0, 0.0, 14062673985536.0]
position_covariance_type: 2
---
header: 
  seq: 1273
  stamp: 
    secs: 1735629026
    nsecs:  33305826
  frame_id: "world"
status: 
  status: 0
  service: 0
latitude: 28.1746734
longitude: 112.9240504
altitude: 59.489
position_covariance: [18446746124288.0, 0.0, 0.0, 0.0, 18446746124288.0, 0.0, 0.0, 0.0, 14062673985536.0]
position_covariance_type: 2
---
header: 
  seq: 1274
  stamp: 
    secs: 1735629027
    nsecs: 823987979
  frame_id: "world"
status: 
  status: 0
  service: 0
latitude: 28.1746711
longitude: 112.9240311
altitude: 59.478
position_covariance: [18446746124288.0, 0.0, 0.0, 0.0, 18446746124288.0, 0.0, 0.0, 0.0, 14062673985536.0]
position_covariance_type: 2
---
header: 
  seq: 1275
  stamp: 
    secs: 1735629029
    nsecs: 713305860
  frame_id: "world"
status: 
  status: 0
  service: 0
latitude: 28.1746686
longitude: 112.9240068
altitude: 59.502
position_covariance: [18446746124288.0, 0.0, 0.0, 0.0, 18446746124288.0, 0.0, 0.0, 0.0, 14062673985536.0]
position_covariance_type: 2
---
header: 
  seq: 1276
  stamp: 
    secs: 1735629031
    nsecs: 133372280
  frame_id: "world"
status: 
  status: 0
  service: 0
latitude: 28.1746662
longitude: 112.9239877
altitude: 59.501
position_covariance: [18446746124288.0, 0.0, 0.0, 0.0, 18446746124288.0, 0.0, 0.0, 0.0, 14062673985536.0]
position_covariance_type: 2
---
header: 
  seq: 1277
  stamp: 
    secs: 1735629031
    nsecs: 193322464
  frame_id: "world"
status: 
  status: 0
  service: 0
latitude: 28.1746661
longitude: 112.9239868
altitude: 59.501
position_covariance: [18446746124288.0, 0.0, 0.0, 0.0, 18446746124288.0, 0.0, 0.0, 0.0, 14062673985536.0]
position_covariance_type: 2
---
header: 
  seq: 1278
  stamp: 
    secs: 1735629031
    nsecs: 473310996
  frame_id: "world"
status: 
  status: 0
  service: 0
latitude: 28.1746657
longitude: 112.923983
altitude: 59.497
position_covariance: [18446746124288.0, 0.0, 0.0, 0.0, 18446746124288.0, 0.0, 0.0, 0.0, 14062673985536.0]
position_covariance_type: 2
---
header: 
  seq: 1279
  stamp: 
    secs: 1735629034
    nsecs: 483316332
  frame_id: "world"
status: 
  status: 0
  service: 0
latitude: 28.1746614
longitude: 112.9239418
altitude: 59.525
position_covariance: [18446746124288.0, 0.0, 0.0, 0.0, 18446746124288.0, 0.0, 0.0, 0.0, 14062673985536.0]
position_covariance_type: 2
---
header: 
  seq: 1280
  stamp: 
    secs: 1735629034
    nsecs: 623324421
  frame_id: "world"
status: 
  status: 0
  service: 0
latitude: 28.174661
longitude: 112.9239398
altitude: 59.526
position_covariance: [18446746124288.0, 0.0, 0.0, 0.0, 18446746124288.0, 0.0, 0.0, 0.0, 14062673985536.0]
position_covariance_type: 2
---
header: 
  seq: 1281
  stamp: 
    secs: 1735629034
    nsecs: 723358174
  frame_id: "world"
status: 
  status: 0
  service: 0
latitude: 28.1746608
longitude: 112.9239383
altitude: 59.528
position_covariance: [18446746124288.0, 0.0, 0.0, 0.0, 18446746124288.0, 0.0, 0.0, 0.0, 14062673985536.0]
position_covariance_type: 2
---
header: 
  seq: 1282
  stamp: 
    secs: 1735629034
    nsecs: 793370419
  frame_id: "world"
status: 
  status: 0
  service: 0
latitude: 28.1746607
longitude: 112.9239372
altitude: 59.528
position_covariance: [18446746124288.0, 0.0, 0.0, 0.0, 18446746124288.0, 0.0, 0.0, 0.0, 14062673985536.0]
position_covariance_type: 2
---
header: 
  seq: 1283
  stamp: 
    secs: 1735629035
    nsecs:  23407811
  frame_id: "world"
status: 
  status: 0
  service: 0
latitude: 28.1746602
longitude: 112.9239338
altitude: 59.535
position_covariance: [18446746124288.0, 0.0, 0.0, 0.0, 18446746124288.0, 0.0, 0.0, 0.0, 14062673985536.0]
position_covariance_type: 2
---
header: 
  seq: 1284
  stamp: 
    secs: 1735629037
    nsecs: 448332484
  frame_id: "world"
status: 
  status: 0
  service: 0
latitude: 28.1746555
longitude: 112.923899
altitude: 59.538
position_covariance: [18446746124288.0, 0.0, 0.0, 0.0, 18446746124288.0, 0.0, 0.0, 0.0, 14062673985536.0]
position_covariance_type: 2
---
header: 
  seq: 1285
  stamp: 
    secs: 1735629038
    nsecs:  23298734
  frame_id: "world"
status: 
  status: 0
  service: 0
latitude: 28.1746544
longitude: 112.9238912
altitude: 59.541
position_covariance: [18446746124288.0, 0.0, 0.0, 0.0, 18446746124288.0, 0.0, 0.0, 0.0, 14062673985536.0]
position_covariance_type: 2
---
header: 
  seq: 1286
  stamp: 
    secs: 1735629044
    nsecs:  48350206
  frame_id: "world"
status: 
  status: 0
  service: 0
latitude: 28.1746442
longitude: 112.9238038
altitude: 59.697
position_covariance: [18446746124288.0, 0.0, 0.0, 0.0, 18446746124288.0, 0.0, 0.0, 0.0, 14062673985536.0]
position_covariance_type: 2
---
header: 
  seq: 1287
  stamp: 
    secs: 1735629044
    nsecs: 163778198
  frame_id: "world"
status: 
  status: 0
  service: 0
latitude: 28.174644
longitude: 112.923802
altitude: 59.702
position_covariance: [18446746124288.0, 0.0, 0.0, 0.0, 18446746124288.0, 0.0, 0.0, 0.0, 14062673985536.0]
position_covariance_type: 2
---
header: 
  seq: 1288
  stamp: 
    secs: 1735629044
    nsecs: 923326924
  frame_id: "world"
status: 
  status: 0
  service: 0
latitude: 28.1746427
longitude: 112.9237904
altitude: 59.726
position_covariance: [18446746124288.0, 0.0, 0.0, 0.0, 18446746124288.0, 0.0, 0.0, 0.0, 14062673985536.0]
position_covariance_type: 2
---
header: 
  seq: 1289
  stamp: 
    secs: 1735629048
    nsecs: 133393680
  frame_id: "world"
status: 
  status: 0
  service: 0
latitude: 28.1746364
longitude: 112.9237406
altitude: 59.826
position_covariance: [18446746124288.0, 0.0, 0.0, 0.0, 18446746124288.0, 0.0, 0.0, 0.0, 14062673985536.0]
position_covariance_type: 2
---
header: 
  seq: 1290
  stamp: 
    secs: 1735629051
    nsecs: 183409337
  frame_id: "world"
status: 
  status: 0
  service: 0
latitude: 28.1746297
longitude: 112.9236925
altitude: 59.929
position_covariance: [18446746124288.0, 0.0, 0.0, 0.0, 18446746124288.0, 0.0, 0.0, 0.0, 14062673985536.0]
position_covariance_type: 2
---
header: 
  seq: 1291
  stamp: 
    secs: 1735629052
    nsecs:  48388627
  frame_id: "world"
status: 
  status: 0
  service: 0
latitude: 28.1746284
longitude: 112.9236786
altitude: 59.956
position_covariance: [18446746124288.0, 0.0, 0.0, 0.0, 18446746124288.0, 0.0, 0.0, 0.0, 14062673985536.0]
position_covariance_type: 2
---
header: 
  seq: 1292
  stamp: 
    secs: 1735629052
    nsecs: 373677895
  frame_id: "world"
status: 
  status: 0
  service: 0
latitude: 28.174628
longitude: 112.9236734
altitude: 59.958
position_covariance: [18446746124288.0, 0.0, 0.0, 0.0, 18446746124288.0, 0.0, 0.0, 0.0, 14062673985536.0]
position_covariance_type: 2
---
header: 
  seq: 1293
  stamp: 
    secs: 1735629056
    nsecs:   3344315
  frame_id: "world"
status: 
  status: 0
  service: 0
latitude: 28.1746241
longitude: 112.9236181
altitude: 60.035
position_covariance: [18446746124288.0, 0.0, 0.0, 0.0, 18446746124288.0, 0.0, 0.0, 0.0, 14062673985536.0]
position_covariance_type: 2
---
header: 
  seq: 1294
  stamp: 
    secs: 1735629057
    nsecs: 403302059
  frame_id: "world"
status: 
  status: 0
  service: 0
latitude: 28.1746244
longitude: 112.9236069
altitude: 60.056
position_covariance: [18446746124288.0, 0.0, 0.0, 0.0, 18446746124288.0, 0.0, 0.0, 0.0, 14062673985536.0]
position_covariance_type: 2
---
header: 
  seq: 1295
  stamp: 
    secs: 1735629057
    nsecs: 483303191
  frame_id: "world"
status: 
  status: 0
  service: 0
latitude: 28.1746245
longitude: 112.9236063
altitude: 60.061
position_covariance: [18446746124288.0, 0.0, 0.0, 0.0, 18446746124288.0, 0.0, 0.0, 0.0, 14062673985536.0]
position_covariance_type: 2
---
header: 
  seq: 1296
  stamp: 
    secs: 1735629057
    nsecs: 493354044
  frame_id: "world"
status: 
  status: 0
  service: 0
latitude: 28.1746245
longitude: 112.9236063
altitude: 60.061
position_covariance: [18446746124288.0, 0.0, 0.0, 0.0, 18446746124288.0, 0.0, 0.0, 0.0, 14062673985536.0]
position_covariance_type: 2
---
header: 
  seq: 1297
  stamp: 
    secs: 1735629057
    nsecs: 503343661
  frame_id: "world"
status: 
  status: 0
  service: 0
latitude: 28.1746245
longitude: 112.9236062
altitude: 60.062
position_covariance: [18446746124288.0, 0.0, 0.0, 0.0, 18446746124288.0, 0.0, 0.0, 0.0, 14062673985536.0]
position_covariance_type: 2
---
header: 
  seq: 1298
  stamp: 
    secs: 1735629057
    nsecs: 513282210
  frame_id: "world"
status: 
  status: 0
  service: 0
latitude: 28.1746245
longitude: 112.9236061
altitude: 60.062
position_covariance: [18446746124288.0, 0.0, 0.0, 0.0, 18446746124288.0, 0.0, 0.0, 0.0, 14062673985536.0]
position_covariance_type: 2
---
header: 
  seq: 1299
  stamp: 
    secs: 1735629057
    nsecs: 523277735
  frame_id: "world"
status: 
  status: 0
  service: 0
latitude: 28.1746245
longitude: 112.923606
altitude: 60.062
position_covariance: [18446746124288.0, 0.0, 0.0, 0.0, 18446746124288.0, 0.0, 0.0, 0.0, 14062673985536.0]
position_covariance_type: 2
---
header: 
  seq: 1300
  stamp: 
    secs: 1735629057
    nsecs: 533335874
  frame_id: "world"
status: 
  status: 0
  service: 0
latitude: 28.1746245
longitude: 112.923606
altitude: 60.062
position_covariance: [18446746124288.0, 0.0, 0.0, 0.0, 18446746124288.0, 0.0, 0.0, 0.0, 14062673985536.0]
position_covariance_type: 2
---
header: 
  seq: 1301
  stamp: 
    secs: 1735629057
    nsecs: 543293643
  frame_id: "world"
status: 
  status: 0
  service: 0
latitude: 28.1746245
longitude: 112.9236059
altitude: 60.062
position_covariance: [18446746124288.0, 0.0, 0.0, 0.0, 18446746124288.0, 0.0, 0.0, 0.0, 14062673985536.0]
position_covariance_type: 2
---
header: 
  seq: 1302
  stamp: 
    secs: 1735629057
    nsecs: 563488448
  frame_id: "world"
status: 
  status: 0
  service: 0
latitude: 28.1746245
longitude: 112.9236058
altitude: 60.062
position_covariance: [18446746124288.0, 0.0, 0.0, 0.0, 18446746124288.0, 0.0, 0.0, 0.0, 14062673985536.0]
position_covariance_type: 2
---
header: 
  seq: 1303
  stamp: 
    secs: 1735629057
    nsecs: 573332623
  frame_id: "world"
status: 
  status: 0
  service: 0
latitude: 28.1746246
longitude: 112.9236057
altitude: 60.063
position_covariance: [18446746124288.0, 0.0, 0.0, 0.0, 18446746124288.0, 0.0, 0.0, 0.0, 14062673985536.0]
position_covariance_type: 2
---
header: 
  seq: 1304
  stamp: 
    secs: 1735629057
    nsecs: 583307949
  frame_id: "world"
status: 
  status: 0
  service: 0
latitude: 28.1746246
longitude: 112.9236056
altitude: 60.063
position_covariance: [18446746124288.0, 0.0, 0.0, 0.0, 18446746124288.0, 0.0, 0.0, 0.0, 14062673985536.0]
position_covariance_type: 2
---
header: 
  seq: 1305
  stamp: 
    secs: 1735629057
    nsecs: 593341564
  frame_id: "world"
status: 
  status: 0
  service: 0
latitude: 28.1746246
longitude: 112.9236056
altitude: 60.063
position_covariance: [18446746124288.0, 0.0, 0.0, 0.0, 18446746124288.0, 0.0, 0.0, 0.0, 14062673985536.0]
position_covariance_type: 2
---
header: 
  seq: 1306
  stamp: 
    secs: 1735629057
    nsecs: 603369063
  frame_id: "world"
status: 
  status: 0
  service: 0
latitude: 28.1746246
longitude: 112.9236055
altitude: 60.064
position_covariance: [18446746124288.0, 0.0, 0.0, 0.0, 18446746124288.0, 0.0, 0.0, 0.0, 14062673985536.0]
position_covariance_type: 2
---
header: 
  seq: 1307
  stamp: 
    secs: 1735629057
    nsecs: 613316803
  frame_id: "world"
status: 
  status: 0
  service: 0
latitude: 28.1746246
longitude: 112.9236054
altitude: 60.064
position_covariance: [18446746124288.0, 0.0, 0.0, 0.0, 18446746124288.0, 0.0, 0.0, 0.0, 14062673985536.0]
position_covariance_type: 2
---
header: 
  seq: 1308
  stamp: 
    secs: 1735629057
    nsecs: 663370547
  frame_id: "world"
status: 
  status: 0
  service: 0
latitude: 28.1746247
longitude: 112.923605
altitude: 60.057
position_covariance: [18446746124288.0, 0.0, 0.0, 0.0, 18446746124288.0, 0.0, 0.0, 0.0, 14062673985536.0]
position_covariance_type: 2
---
header: 
  seq: 1309
  stamp: 
    secs: 1735629057
    nsecs: 673392622
  frame_id: "world"
status: 
  status: 0
  service: 0
latitude: 28.1746247
longitude: 112.9236049
altitude: 60.057
position_covariance: [18446746124288.0, 0.0, 0.0, 0.0, 18446746124288.0, 0.0, 0.0, 0.0, 14062673985536.0]
position_covariance_type: 2
---
header: 
  seq: 1310
  stamp: 
    secs: 1735629057
    nsecs: 683325306
  frame_id: "world"
status: 
  status: 0
  service: 0
latitude: 28.1746247
longitude: 112.9236048
altitude: 60.057
position_covariance: [18446746124288.0, 0.0, 0.0, 0.0, 18446746124288.0, 0.0, 0.0, 0.0, 14062673985536.0]
position_covariance_type: 2
---
header: 
  seq: 1311
  stamp: 
    secs: 1735629057
    nsecs: 693352024
  frame_id: "world"
status: 
  status: 0
  service: 0
latitude: 28.1746247
longitude: 112.9236048
altitude: 60.057
position_covariance: [18446746124288.0, 0.0, 0.0, 0.0, 18446746124288.0, 0.0, 0.0, 0.0, 14062673985536.0]
position_covariance_type: 2
---
header: 
  seq: 1312
  stamp: 
    secs: 1735629057
    nsecs: 703334773
  frame_id: "world"
status: 
  status: 0
  service: 0
latitude: 28.1746247
longitude: 112.9236047
altitude: 60.057
position_covariance: [18446746124288.0, 0.0, 0.0, 0.0, 18446746124288.0, 0.0, 0.0, 0.0, 14062673985536.0]
position_covariance_type: 2
---
header: 
  seq: 1313
  stamp: 
    secs: 1735629057
    nsecs: 713304368
  frame_id: "world"
status: 
  status: 0
  service: 0
latitude: 28.1746247
longitude: 112.9236046
altitude: 60.057
position_covariance: [18446746124288.0, 0.0, 0.0, 0.0, 18446746124288.0, 0.0, 0.0, 0.0, 14062673985536.0]
position_covariance_type: 2
---
header: 
  seq: 1314
  stamp: 
    secs: 1735629057
    nsecs: 733314366
  frame_id: "world"
status: 
  status: 0
  service: 0
latitude: 28.1746247
longitude: 112.9236045
altitude: 60.057
position_covariance: [18446746124288.0, 0.0, 0.0, 0.0, 18446746124288.0, 0.0, 0.0, 0.0, 14062673985536.0]
position_covariance_type: 2
---
header: 
  seq: 1315
  stamp: 
    secs: 1735629058
    nsecs: 248372410
  frame_id: "world"
status: 
  status: 0
  service: 0
latitude: 28.1746256
longitude: 112.9236007
altitude: 60.066
position_covariance: [18446746124288.0, 0.0, 0.0, 0.0, 18446746124288.0, 0.0, 0.0, 0.0, 14062673985536.0]
position_covariance_type: 2
---
header: 
  seq: 1316
  stamp: 
    secs: 1735629060
    nsecs: 943391568
  frame_id: "world"
status: 
  status: 0
  service: 0
latitude: 28.1746403
longitude: 112.9235845
altitude: 60.095
position_covariance: [18446746124288.0, 0.0, 0.0, 0.0, 18446746124288.0, 0.0, 0.0, 0.0, 14062673985536.0]
position_covariance_type: 2
---
header: 
  seq: 1317
  stamp: 
    secs: 1735629061
    nsecs: 473290973
  frame_id: "world"
status: 
  status: 0
  service: 0
latitude: 28.1746445
longitude: 112.9235831
altitude: 60.113
position_covariance: [18446746124288.0, 0.0, 0.0, 0.0, 18446746124288.0, 0.0, 0.0, 0.0, 14062673985536.0]
position_covariance_type: 2
---
header: 
  seq: 1318
  stamp: 
    secs: 1735629064
    nsecs: 653360840
  frame_id: "world"
status: 
  status: 0
  service: 0
latitude: 28.174671
longitude: 112.9235803
altitude: 60.105
position_covariance: [18446746124288.0, 0.0, 0.0, 0.0, 18446746124288.0, 0.0, 0.0, 0.0, 14062673985536.0]
position_covariance_type: 2
---
header: 
  seq: 1319
  stamp: 
    secs: 1735629067
    nsecs: 248388958
  frame_id: "world"
status: 
  status: 0
  service: 0
latitude: 28.1746927
longitude: 112.9235858
altitude: 60.143
position_covariance: [18446746124288.0, 0.0, 0.0, 0.0, 18446746124288.0, 0.0, 0.0, 0.0, 14062673985536.0]
position_covariance_type: 2
---
header: 
  seq: 1320
  stamp: 
    secs: 1735629067
    nsecs: 273347188
  frame_id: "world"
status: 
  status: 0
  service: 0
latitude: 28.1746929
longitude: 112.9235859
altitude: 60.14
position_covariance: [18446746124288.0, 0.0, 0.0, 0.0, 18446746124288.0, 0.0, 0.0, 0.0, 14062673985536.0]
position_covariance_type: 2
---
header: 
  seq: 1321
  stamp: 
    secs: 1735629074
    nsecs:  48345189
  frame_id: "world"
status: 
  status: 0
  service: 0
latitude: 28.1747315
longitude: 112.9236329
altitude: 60.084
position_covariance: [18446746124288.0, 0.0, 0.0, 0.0, 18446746124288.0, 0.0, 0.0, 0.0, 14062673985536.0]
position_covariance_type: 2
---
header: 
  seq: 1322
  stamp: 
    secs: 1735629075
    nsecs: 543363331
  frame_id: "world"
status: 
  status: 0
  service: 0
latitude: 28.1747356
longitude: 112.9236467
altitude: 60.029
position_covariance: [18446746124288.0, 0.0, 0.0, 0.0, 18446746124288.0, 0.0, 0.0, 0.0, 14062673985536.0]
position_covariance_type: 2
---
header: 
  seq: 1323
  stamp: 
    secs: 1735629076
    nsecs:   3378891
  frame_id: "world"
status: 
  status: 0
  service: 0
latitude: 28.1747364
longitude: 112.9236512
altitude: 59.995
position_covariance: [18446746124288.0, 0.0, 0.0, 0.0, 18446746124288.0, 0.0, 0.0, 0.0, 14062673985536.0]
position_covariance_type: 2
---
header: 
  seq: 1324
  stamp: 
    secs: 1735629078
    nsecs:  74307049
  frame_id: "world"
status: 
  status: 0
  service: 0
latitude: 28.1747382
longitude: 112.9236735
altitude: 60.033
position_covariance: [18446746124288.0, 0.0, 0.0, 0.0, 18446746124288.0, 0.0, 0.0, 0.0, 14062673985536.0]
position_covariance_type: 2
---
header: 
  seq: 1325
  stamp: 
    secs: 1735629084
    nsecs: 153466484
  frame_id: "world"
status: 
  status: 0
  service: 0
latitude: 28.1747434
longitude: 112.9237495
altitude: 59.919
position_covariance: [18446746124288.0, 0.0, 0.0, 0.0, 18446746124288.0, 0.0, 0.0, 0.0, 14062673985536.0]
position_covariance_type: 2
---
header: 
  seq: 1326
  stamp: 
    secs: 1735629085
    nsecs: 153458394
  frame_id: "world"
status: 
  status: 0
  service: 0
latitude: 28.1747439
longitude: 112.9237623
altitude: 59.919
position_covariance: [18446746124288.0, 0.0, 0.0, 0.0, 18446746124288.0, 0.0, 0.0, 0.0, 14062673985536.0]
position_covariance_type: 2
---
header: 
  seq: 1327
  stamp: 
    secs: 1735629092
    nsecs: 733388424
  frame_id: "world"
status: 
  status: 0
  service: 0
latitude: 28.1747502
longitude: 112.9238475
altitude: 59.737
position_covariance: [18446746124288.0, 0.0, 0.0, 0.0, 18446746124288.0, 0.0, 0.0, 0.0, 14062673985536.0]
position_covariance_type: 2
---
